<?xml version='1.0' encoding='UTF-8'?>
<kml xmlns='http://www.opengis.net/kml/2.2'>
	<Document>
		<name>大台南公車－1路</name>
		<description><![CDATA[]]></description>
		<Folder>
			<name>1路</name>
			<Placemark>
				<styleUrl>#icon-1423</styleUrl>
				<name>台南火車站</name>
				<description><![CDATA[轉運站]]></description>
				<Point>
					<coordinates>120.21124362945557,22.99734055314386,0.0</coordinates>
				</Point>
			</Placemark>
			<Placemark>
				<styleUrl>#icon-959-FFFFFF</styleUrl>
				<name>台南醫院</name>
				<Point>
					<coordinates>120.20929098129272,22.995343089004464,0.0</coordinates>
				</Point>
			</Placemark>
			<Placemark>
				<styleUrl>#icon-959-FFFFFF</styleUrl>
				<name>中山、民權路口</name>
				<Point>
					<coordinates>120.20708084106445,22.993893736202082,0.0</coordinates>
				</Point>
			</Placemark>
			<Placemark>
				<styleUrl>#icon-959-CCCCCC</styleUrl>
				<name>民生綠園</name>
				<description><![CDATA[返程(->台南)單邊設站]]></description>
				<Point>
					<coordinates>120.20597845315933,22.993148066518525,0.0</coordinates>
				</Point>
			</Placemark>
			<Placemark>
				<styleUrl>#icon-959-FFFFFF</styleUrl>
				<name>林百貨(中正路)</name>
				<Point>
					<coordinates>120.20193636417389,22.992081406037972,0.0</coordinates>
				</Point>
			</Placemark>
			<Placemark>
				<styleUrl>#icon-959-FFFFFF</styleUrl>
				<name>中正、西門路口</name>
				<Point>
					<coordinates>120.19968867301941,22.992535725420943,0.0</coordinates>
				</Point>
			</Placemark>
			<Placemark>
				<styleUrl>#icon-959-FFFFFF</styleUrl>
				<name>西門、友愛街口</name>
				<Point>
					<coordinates>120.1982831954956,22.99178017169129,0.0</coordinates>
				</Point>
			</Placemark>
			<Placemark>
				<styleUrl>#icon-959-FFFFFF</styleUrl>
				<name>小西門(大億麗緻)</name>
				<Point>
					<coordinates>120.1975804567337,22.988782606415967,0.0</coordinates>
				</Point>
			</Placemark>
			<Placemark>
				<styleUrl>#icon-959-FFFFFF</styleUrl>
				<name>新光三越新天地</name>
				<Point>
					<coordinates>120.1975965499878,22.98685662327346,0.0</coordinates>
				</Point>
			</Placemark>
			<Placemark>
				<styleUrl>#icon-959-FFFFFF</styleUrl>
				<name>西門路一段</name>
				<Point>
					<coordinates>120.19762873649597,22.984298480123154,0.0</coordinates>
				</Point>
			</Placemark>
			<Placemark>
				<styleUrl>#icon-959-FFFFFF</styleUrl>
				<name>台南站</name>
				<Point>
					<coordinates>120.19767165184021,22.98215513369836,0.0</coordinates>
				</Point>
			</Placemark>
			<Placemark>
				<styleUrl>#icon-959-FFFFFF</styleUrl>
				<name>新興國小</name>
				<Point>
					<coordinates>120.19629836082458,22.9789499277878,0.0</coordinates>
				</Point>
			</Placemark>
			<Placemark>
				<styleUrl>#icon-959-FFFFFF</styleUrl>
				<name>新興路</name>
				<Point>
					<coordinates>120.19425988197327,22.97752262364626,0.0</coordinates>
				</Point>
			</Placemark>
			<Placemark>
				<styleUrl>#icon-959-FFFFFF</styleUrl>
				<name>南稅三村</name>
				<Point>
					<coordinates>120.19313871860504,22.976712658881503,0.0</coordinates>
				</Point>
			</Placemark>
			<Placemark>
				<styleUrl>#icon-959-FFFFFF</styleUrl>
				<name>三官廟</name>
				<Point>
					<coordinates>120.19164204597473,22.975680440651626,0.0</coordinates>
				</Point>
			</Placemark>
			<Placemark>
				<styleUrl>#icon-959-FFFFFF</styleUrl>
				<name>北鹽埕</name>
				<Point>
					<coordinates>120.19078373908997,22.973611041601693,0.0</coordinates>
				</Point>
			</Placemark>
			<Placemark>
				<styleUrl>#icon-959-FFFFFF</styleUrl>
				<name>日新國小</name>
				<Point>
					<coordinates>120.19064962863922,22.97204045028985,0.0</coordinates>
				</Point>
			</Placemark>
			<Placemark>
				<styleUrl>#icon-959-FFFFFF</styleUrl>
				<name>鹽埕</name>
				<Point>
					<coordinates>120.19051551818848,22.970558743642986,0.0</coordinates>
				</Point>
			</Placemark>
			<Placemark>
				<styleUrl>#icon-959-FFFFFF</styleUrl>
				<name>新都路口</name>
				<Point>
					<coordinates>120.19023656845093,22.96794596135195,0.0</coordinates>
				</Point>
			</Placemark>
			<Placemark>
				<styleUrl>#icon-959-FFFFFF</styleUrl>
				<name>金華路一段</name>
				<Point>
					<coordinates>120.18996834754944,22.96590607920622,0.0</coordinates>
				</Point>
			</Placemark>
			<Placemark>
				<styleUrl>#icon-959-FFFFFF</styleUrl>
				<name>日新橋</name>
				<Point>
					<coordinates>120.18950700759888,22.962893121917528,0.0</coordinates>
				</Point>
			</Placemark>
			<Placemark>
				<styleUrl>#icon-959-FFFFFF</styleUrl>
				<name>南區區公所</name>
				<Point>
					<coordinates>120.18865406513214,22.9604975260009,0.0</coordinates>
				</Point>
			</Placemark>
			<Placemark>
				<styleUrl>#icon-959-FFFFFF</styleUrl>
				<name>明興路</name>
				<Point>
					<coordinates>120.18673896789551,22.957761061424854,0.0</coordinates>
				</Point>
			</Placemark>
			<Placemark>
				<styleUrl>#icon-959-FFFFFF</styleUrl>
				<name>風櫃門</name>
				<Point>
					<coordinates>120.18406748771667,22.95060845212999,0.0</coordinates>
				</Point>
			</Placemark>
			<Placemark>
				<styleUrl>#icon-959-FFFFFF</styleUrl>
				<name>勞工住宅</name>
				<Point>
					<coordinates>120.17995834350586,22.946291017383384,0.0</coordinates>
				</Point>
			</Placemark>
			<Placemark>
				<styleUrl>#icon-959-FFFFFF</styleUrl>
				<name>北喜樹</name>
				<Point>
					<coordinates>120.17988324165344,22.943979107826546,0.0</coordinates>
				</Point>
			</Placemark>
			<Placemark>
				<styleUrl>#icon-959-FFFFFF</styleUrl>
				<name>喜樹</name>
				<Point>
					<coordinates>120.17804861068726,22.940372845275782,0.0</coordinates>
				</Point>
			</Placemark>
			<Placemark>
				<styleUrl>#icon-959-FFFFFF</styleUrl>
				<name>喜南里</name>
				<Point>
					<coordinates>120.17847776412964,22.938801867986236,0.0</coordinates>
				</Point>
			</Placemark>
			<Placemark>
				<styleUrl>#icon-959-FFFFFF</styleUrl>
				<name>省躬國小</name>
				<Point>
					<coordinates>120.18037676811218,22.933021700288002,0.0</coordinates>
				</Point>
			</Placemark>
			<Placemark>
				<styleUrl>#icon-959-FFFFFF</styleUrl>
				<name>寮仔</name>
				<Point>
					<coordinates>120.18253326416016,22.932656108735422,0.0</coordinates>
				</Point>
			</Placemark>
			<Placemark>
				<styleUrl>#icon-959-FFFFFF</styleUrl>
				<name>興農公園</name>
				<Point>
					<coordinates>120.18571972846985,22.929044604018998,0.0</coordinates>
				</Point>
			</Placemark>
			<Placemark>
				<styleUrl>#icon-959-FFFFFF</styleUrl>
				<name>馬鎮宮</name>
				<Point>
					<coordinates>120.18585920333862,22.9263519694408,0.0</coordinates>
				</Point>
			</Placemark>
			<Placemark>
				<styleUrl>#icon-959-FFFFFF</styleUrl>
				<name>同安宮</name>
				<Point>
					<coordinates>120.18536031246185,22.92511185734913,0.0</coordinates>
				</Point>
			</Placemark>
			<Placemark>
				<styleUrl>#icon-959-FFFFFF</styleUrl>
				<name>同安里</name>
				<Point>
					<coordinates>120.18481314182281,22.92308121104473,0.0</coordinates>
				</Point>
			</Placemark>
			<Placemark>
				<styleUrl>#icon-959-FFFFFF</styleUrl>
				<name>南萣橋北</name>
				<Point>
					<coordinates>120.18445909023285,22.921085120294787,0.0</coordinates>
				</Point>
			</Placemark>
			<Placemark>
				<styleUrl>#icon-959-FFFFFF</styleUrl>
				<name>南萣橋南</name>
				<Point>
					<coordinates>120.185387134552,22.915995943997817,0.0</coordinates>
				</Point>
			</Placemark>
			<Placemark>
				<styleUrl>#icon-959-FFFFFF</styleUrl>
				<name>白砂崙</name>
				<Point>
					<coordinates>120.18537104129791,22.913881162107696,0.0</coordinates>
				</Point>
			</Placemark>
			<Placemark>
				<styleUrl>#icon-959-FFFFFF</styleUrl>
				<name>白砂崙廟口</name>
				<Point>
					<coordinates>120.18512964248657,22.912808935319692,0.0</coordinates>
				</Point>
			</Placemark>
			<Placemark>
				<styleUrl>#icon-959-FFFFFF</styleUrl>
				<name>茄萣農會</name>
				<Point>
					<coordinates>120.18471121788025,22.910822575727057,0.0</coordinates>
				</Point>
			</Placemark>
			<Placemark>
				<styleUrl>#icon-959-FFFFFF</styleUrl>
				<name>茄萣電信局</name>
				<Point>
					<coordinates>120.18442690372467,22.90940937680514,0.0</coordinates>
				</Point>
			</Placemark>
			<Placemark>
				<styleUrl>#icon-960-F4EB37</styleUrl>
				<name>威武廟</name>
				<description><![CDATA[分段點]]></description>
				<Point>
					<coordinates>120.18402993679047,22.907566266566747,0.0</coordinates>
				</Point>
			</Placemark>
			<Placemark>
				<styleUrl>#icon-959-FFFFFF</styleUrl>
				<name>茄萣國中</name>
				<Point>
					<coordinates>120.1837831735611,22.906439634565395,0.0</coordinates>
				</Point>
			</Placemark>
			<Placemark>
				<styleUrl>#icon-959-FFFFFF</styleUrl>
				<name>茄萣國小</name>
				<Point>
					<coordinates>120.18374562263489,22.903543949719875,0.0</coordinates>
				</Point>
			</Placemark>
			<Placemark>
				<styleUrl>#icon-959-FFFFFF</styleUrl>
				<name>曾厝</name>
				<Point>
					<coordinates>120.1840353012085,22.901399324161048,0.0</coordinates>
				</Point>
			</Placemark>
			<Placemark>
				<styleUrl>#icon-959-FFFFFF</styleUrl>
				<name>頂茄萣</name>
				<Point>
					<coordinates>120.18470585346222,22.898162555477217,0.0</coordinates>
				</Point>
			</Placemark>
			<Placemark>
				<styleUrl>#icon-959-FFFFFF</styleUrl>
				<name>下茄萣</name>
				<Point>
					<coordinates>120.18510282039642,22.895592852058716,0.0</coordinates>
				</Point>
			</Placemark>
			<Placemark>
				<styleUrl>#icon-959-FFFFFF</styleUrl>
				<name>光萣</name>
				<Point>
					<coordinates>120.18627762794495,22.892825424712075,0.0</coordinates>
				</Point>
			</Placemark>
			<Placemark>
				<styleUrl>#icon-959-FFFFFF</styleUrl>
				<name>成功橋</name>
				<Point>
					<coordinates>120.18699109554291,22.889934391220457,0.0</coordinates>
				</Point>
			</Placemark>
			<Placemark>
				<styleUrl>#icon-959-FFFFFF</styleUrl>
				<name>衛生所</name>
				<Point>
					<coordinates>120.185387134552,22.88823433593061,0.0</coordinates>
				</Point>
			</Placemark>
			<Placemark>
				<styleUrl>#icon-959-FFFFFF</styleUrl>
				<name>茄萣</name>
				<Point>
					<coordinates>120.18522083759308,22.88916838057187,0.0</coordinates>
				</Point>
			</Placemark>
			<Placemark>
				<styleUrl>#icon-959-FFFFFF</styleUrl>
				<name>北崎漏</name>
				<Point>
					<coordinates>120.1884126663208,22.87961512333264,0.0</coordinates>
				</Point>
			</Placemark>
			<Placemark>
				<styleUrl>#icon-959-FFFFFF</styleUrl>
				<name>崎漏</name>
				<Point>
					<coordinates>120.18904566764832,22.877529428880027,0.0</coordinates>
				</Point>
			</Placemark>
			<Placemark>
				<styleUrl>#icon-959-FFFFFF</styleUrl>
				<name>崎漏茄萣農會</name>
				<Point>
					<coordinates>120.19118070602417,22.87377806368088,0.0</coordinates>
				</Point>
			</Placemark>
			<Placemark>
				<styleUrl>#icon-959-FFFFFF</styleUrl>
				<name>崎漏電信局</name>
				<Point>
					<coordinates>120.19378244876862,22.874598529218474,0.0</coordinates>
				</Point>
			</Placemark>
			<Placemark>
				<styleUrl>#icon-959-FFFFFF</styleUrl>
				<name>興達國小</name>
				<Point>
					<coordinates>120.19667387008667,22.875458529943046,0.0</coordinates>
				</Point>
			</Placemark>
			<Placemark>
				<styleUrl>#icon-959-FFFFFF</styleUrl>
				<name>興達港海巡署基地</name>
				<Point>
					<coordinates>120.20104050636292,22.87619990550684,0.0</coordinates>
				</Point>
			</Placemark>
			<Placemark>
				<styleUrl>#icon-1443</styleUrl>
				<name>興達港</name>
				<description><![CDATA[延駛段終點]]></description>
				<Point>
					<coordinates>120.2038836479187,22.878542625684354,0.0</coordinates>
				</Point>
			</Placemark>
			<Placemark>
				<styleUrl>#icon-959-FFFFFF</styleUrl>
				<name>情人碼頭</name>
				<Point>
					<coordinates>120.21113097667694,22.880697497162576,0.0</coordinates>
				</Point>
			</Placemark>
			<Placemark>
				<styleUrl>#icon-959-FFFFFF</styleUrl>
				<name>假日市集</name>
				<Point>
					<coordinates>120.21406531333923,22.87943719804164,0.0</coordinates>
				</Point>
			</Placemark>
			<Placemark>
				<styleUrl>#icon-1443</styleUrl>
				<name>興達遠洋漁港</name>
				<description><![CDATA[延駛段終點]]></description>
				<Point>
					<coordinates>120.21415114402771,22.876852312654858,0.0</coordinates>
				</Point>
			</Placemark>
			<Placemark>
				<styleUrl>#line-7C3592-3</styleUrl>
				<name>1路</name>
				<description><![CDATA[1路路線]]></description>
				<LineString>
					<tessellate>1</tessellate>
					<coordinates>120.21124362945557,22.99734055314386,0.0 120.21127849817276,22.997110932688134,0.0 120.21143540754792,22.99695044509006,0.0 120.21162986755371,22.99688378088528,0.0 120.20511746406555,22.992590046114422,0.0 120.20274639129639,22.991898690202955,0.0 120.19862651824951,22.99274806982575,0.0 120.19757509231567,22.98972583429467,0.0 120.19768238067627,22.979789511416424,0.0 120.19741415977478,22.979700614573318,0.0 120.19103050231934,22.975275453355234,0.0 120.19068717956543,22.972746724741725,0.0 120.19051551818848,22.97055874364296,0.0 120.19009709358215,22.966691412780023,0.0 120.18921732902527,22.961337224245483,0.0 120.18903493881226,22.96086304234818,0.0 120.18713593482971,22.958946540240685,0.0 120.18462002277374,22.950712187425776,0.0 120.18282294273376,22.950317004921022,0.0 120.18014073371887,22.949363622377298,0.0 120.1798939704895,22.949086991988132,0.0 120.17976522445679,22.948840000091348,0.0 120.17967939376831,22.94824721769964,0.0 120.17995834350586,22.94679488986558,0.0 120.1798939704895,22.94321834262735,0.0 120.17946481704712,22.942329131130574,0.0 120.1779842376709,22.9406099723397,0.0 120.17847776412964,22.938801867986236,0.0 120.1804518699646,22.93282408335508,0.0 120.18232941627502,22.933189674454216,0.0 120.1830267906189,22.931381471008752,0.0 120.18405675888062,22.930156226536972,0.0 120.18613815307617,22.928733348079067,0.0 120.1863956451416,22.92804166565175,0.0 120.18630981445312,22.92693496642145,0.0 120.18566608428955,22.92602588528968,0.0 120.18487215042114,22.9234962361217,0.0 120.1845932006836,22.921500151486043,0.0 120.18412113189697,22.92015623635555,0.0 120.18517255783081,22.916381344619374,0.0 120.18568754196167,22.91535360719315,0.0 120.18348813056946,22.905135101605897,0.0 120.18424987792969,22.900084859475644,0.0 120.18452882766724,22.89905699851576,0.0 120.18472194671631,22.897989596198116,0.0 120.18514037132263,22.895350704419414,0.0 120.18627762794495,22.892825424712075,0.0 120.18688917160034,22.89066580380438,0.0 120.18718957901001,22.88799711722029,0.0 120.18626689910889,22.886158658157,0.0 120.18555074930191,22.88707912632506,0.0 120.18530264496803,22.88903865253387,0.0 120.18522083759308,22.88916838057187,0.0</coordinates>
				</LineString>
			</Placemark>
			<Placemark>
				<styleUrl>#line-D698AD-4</styleUrl>
				<name>1路(延駛興達港段)</name>
				<description><![CDATA[1路(延駛興達港段)路線]]></description>
				<LineString>
					<tessellate>1</tessellate>
					<coordinates>120.18517926335335,22.889154790021298,0.0 120.18526241183281,22.889009000393475,0.0 120.18550246953964,22.8870334119459,0.0 120.18629908561707,22.886040047039707,0.0 120.18761873245239,22.881592055321818,0.0 120.18821954727173,22.880544284952933,0.0 120.1887559890747,22.87799401762154,0.0 120.1893138885498,22.877084608382667,0.0 120.19057989120483,22.8735062215963,0.0 120.19667387008667,22.875458529943046,0.0 120.19800424575806,22.87572048310465,0.0 120.20047187805176,22.875799563205085,0.0 120.20652294158936,22.880524515622938,0.0 120.2139687538147,22.88070243948904,0.0 120.21416187286377,22.876708981050108,0.0</coordinates>
				</LineString>
			</Placemark>
		</Folder>
		<Style id='icon-1423'>
			<IconStyle>
				<scale>1.1</scale>
				<Icon>
					<href>http://www.gstatic.com/mapspro/images/stock/1423-trans-bus.png</href>
				</Icon>
			</IconStyle>
		</Style>
		<Style id='icon-1443'>
			<IconStyle>
				<scale>1.1</scale>
				<Icon>
					<href>http://www.gstatic.com/mapspro/images/stock/1443-trans-marine.png</href>
				</Icon>
			</IconStyle>
		</Style>
		<Style id='icon-959-CCCCCC'>
			<IconStyle>
				<color>ffCCCCCC</color>
				<scale>1.1</scale>
				<Icon>
					<href>http://www.gstatic.com/mapspro/images/stock/959-wht-circle-blank.png</href>
				</Icon>
			</IconStyle>
		</Style>
		<Style id='icon-959-FFFFFF'>
			<IconStyle>
				<color>ffFFFFFF</color>
				<scale>1.1</scale>
				<Icon>
					<href>http://www.gstatic.com/mapspro/images/stock/959-wht-circle-blank.png</href>
				</Icon>
			</IconStyle>
		</Style>
		<Style id='icon-960-F4EB37'>
			<IconStyle>
				<color>ff37EBF4</color>
				<scale>1.1</scale>
				<Icon>
					<href>http://www.gstatic.com/mapspro/images/stock/960-wht-star-blank.png</href>
				</Icon>
			</IconStyle>
		</Style>
		<Style id='line-7C3592-3'>
			<LineStyle>
				<color>ff92357C</color>
				<width>3</width>
			</LineStyle>
		</Style>
		<Style id='line-D698AD-4'>
			<LineStyle>
				<color>ffAD98D6</color>
				<width>4</width>
			</LineStyle>
		</Style>
	</Document>
</kml>