<?xml version='1.0' encoding='UTF-8'?>
<kml xmlns='http://www.opengis.net/kml/2.2'>
	<Document>
		<name>大台南公車－20路</name>
		<description><![CDATA[]]></description>
		<Folder>
			<name>20路</name>
			<Placemark>
				<styleUrl>#icon-959-FFFFFF</styleUrl>
				<name>崑山科大</name>
				<Point>
					<coordinates>120.2533757686615,22.999078742634595,0.0</coordinates>
				</Point>
			</Placemark>
			<Placemark>
				<styleUrl>#icon-959-FFFFFF</styleUrl>
				<name>崑山社區</name>
				<Point>
					<coordinates>120.25501728057861,22.99940465067241,0.0</coordinates>
				</Point>
			</Placemark>
			<Placemark>
				<styleUrl>#icon-959-FFFFFF</styleUrl>
				<name>天公廟</name>
				<Point>
					<coordinates>120.25767803192139,22.99994782898681,0.0</coordinates>
				</Point>
			</Placemark>
			<Placemark>
				<styleUrl>#icon-959-FFFFFF</styleUrl>
				<name>大灣</name>
				<Point>
					<coordinates>120.25959849357605,23.001004551444908,0.0</coordinates>
				</Point>
			</Placemark>
			<Placemark>
				<styleUrl>#icon-959-FFFFFF</styleUrl>
				<name>大灣天公廟</name>
				<Point>
					<coordinates>120.26091814041138,23.004322803700987,0.0</coordinates>
				</Point>
			</Placemark>
			<Placemark>
				<styleUrl>#icon-959-FFFFFF</styleUrl>
				<name>鄭耳鼻喉科</name>
				<Point>
					<coordinates>120.26154041290283,23.005873268602866,0.0</coordinates>
				</Point>
			</Placemark>
			<Placemark>
				<styleUrl>#icon-959-FFFFFF</styleUrl>
				<name>楊慶祥中醫診所</name>
				<Point>
					<coordinates>120.26255965232849,23.009280278572337,0.0</coordinates>
				</Point>
			</Placemark>
			<Placemark>
				<styleUrl>#icon-959-FFFFFF</styleUrl>
				<name>大眾證券公司</name>
				<Point>
					<coordinates>120.26373982429504,23.013284639724493,0.0</coordinates>
				</Point>
			</Placemark>
			<Placemark>
				<styleUrl>#icon-959-FFFFFF</styleUrl>
				<name>永大夜市</name>
				<Point>
					<coordinates>120.26240408420563,23.01868120473886,0.0</coordinates>
				</Point>
			</Placemark>
			<Placemark>
				<styleUrl>#icon-959-FFFFFF</styleUrl>
				<name>國通汽車公司</name>
				<Point>
					<coordinates>120.261390209198,23.021673168776573,0.0</coordinates>
				</Point>
			</Placemark>
			<Placemark>
				<styleUrl>#icon-959-FFFFFF</styleUrl>
				<name>永康(永大路)</name>
				<Point>
					<coordinates>120.26091814041138,23.02461569571678,0.0</coordinates>
				</Point>
			</Placemark>
			<Placemark>
				<styleUrl>#icon-959-FFFFFF</styleUrl>
				<name>永大路埔聖街口</name>
				<Point>
					<coordinates>120.26039242744446,23.028639349238432,0.0</coordinates>
				</Point>
			</Placemark>
			<Placemark>
				<styleUrl>#icon-959-FFFFFF</styleUrl>
				<name>埔園里</name>
				<Point>
					<coordinates>120.25960385799408,23.034064920066182,0.0</coordinates>
				</Point>
			</Placemark>
			<Placemark>
				<styleUrl>#icon-959-FFFFFF</styleUrl>
				<name>永康火車站</name>
				<Point>
					<coordinates>120.25426626205444,23.036859077880514,0.0</coordinates>
				</Point>
			</Placemark>
			<Placemark>
				<styleUrl>#icon-959-FFFFFF</styleUrl>
				<name>四維街</name>
				<Point>
					<coordinates>120.25190591812134,23.034524034780365,0.0</coordinates>
				</Point>
			</Placemark>
			<Placemark>
				<styleUrl>#icon-959-FFFFFF</styleUrl>
				<name>歐洲世界社區</name>
				<Point>
					<coordinates>120.25254964828491,23.030747399517534,0.0</coordinates>
				</Point>
			</Placemark>
			<Placemark>
				<styleUrl>#icon-959-FFFFFF</styleUrl>
				<name>新中街</name>
				<Point>
					<coordinates>120.2399754524231,23.036014912634894,0.0</coordinates>
				</Point>
			</Placemark>
			<Placemark>
				<styleUrl>#icon-959-FFFFFF</styleUrl>
				<name>台南應用科大</name>
				<Point>
					<coordinates>120.23773312568665,23.035960609426333,0.0</coordinates>
				</Point>
			</Placemark>
			<Placemark>
				<styleUrl>#icon-959-FFFFFF</styleUrl>
				<name>鹽行</name>
				<Point>
					<coordinates>120.23663341999054,23.040803382240206,0.0</coordinates>
				</Point>
			</Placemark>
			<Placemark>
				<styleUrl>#icon-959-FFFFFF</styleUrl>
				<name>仁愛街</name>
				<Point>
					<coordinates>120.23874163627625,23.043473990838578,0.0</coordinates>
				</Point>
			</Placemark>
			<Placemark>
				<styleUrl>#icon-959-FFFFFF</styleUrl>
				<name>台灣歷史博物館(長和路)</name>
				<Point>
					<coordinates>120.23252964019775,23.05832180632938,0.0</coordinates>
				</Point>
			</Placemark>
			<Placemark>
				<styleUrl>#icon-959-FFFFFF</styleUrl>
				<name>東和里活動中心</name>
				<Point>
					<coordinates>120.22907495498657,23.061737361983038,0.0</coordinates>
				</Point>
			</Placemark>
			<Placemark>
				<styleUrl>#icon-959-FFFFFF</styleUrl>
				<name>東和里</name>
				<Point>
					<coordinates>120.22754609584808,23.062838021132027,0.0</coordinates>
				</Point>
			</Placemark>
			<Placemark>
				<styleUrl>#icon-959-FFFFFF</styleUrl>
				<name>安南醫院</name>
				<Point>
					<coordinates>120.22335648536682,23.064106482617767,0.0</coordinates>
				</Point>
			</Placemark>
			<Placemark>
				<styleUrl>#icon-959-FFFFFF</styleUrl>
				<name>和順國中</name>
				<Point>
					<coordinates>120.22174179553986,23.0659425224208,0.0</coordinates>
				</Point>
			</Placemark>
			<Placemark>
				<styleUrl>#line-7C3592-4</styleUrl>
				<name>20路</name>
				<description><![CDATA[20路路線]]></description>
				<LineString>
					<tessellate>1</tessellate>
					<coordinates>120.22174179554088,23.065942522436398,0.0 120.22123754024506,23.06504918360302,0.0 120.22013783454895,23.06366721131656,0.0 120.22013783454895,23.06338094385414,0.0 120.220867395401,23.063474721193394,0.0 120.22166669368744,23.06381528045471,0.0 120.22241771221161,23.064037383856437,0.0 120.22469758987427,23.064220001934334,0.0 120.22489607334137,23.064170645721507,0.0 120.22569000720978,23.0637215033528,0.0 120.22818982601166,23.062536944860156,0.0 120.23387895571864,23.0569496321836,0.0 120.2378511428833,23.053376007104244,0.0 120.2413272857666,23.04887428339389,0.0 120.23810863494873,23.042220144227116,0.0 120.23699283599854,23.0410748883047,0.0 120.23454666137695,23.039041047754797,0.0 120.23849487304688,23.035170742100597,0.0 120.2418851852417,23.03706641590375,0.0 120.24664878845215,23.032722123967694,0.0 120.25079011917114,23.030964620623365,0.0 120.25254964828491,23.030747399517534,0.0 120.25330066680908,23.030964620623365,0.0 120.25126218795776,23.036276555060223,0.0 120.25420188903809,23.03706641590375,0.0 120.25473833084106,23.035131248612764,0.0 120.25950193405151,23.034637579038318,0.0 120.261390209198,23.021673168776534,0.0 120.26202324688688,23.019989526234134,0.0 120.2638578414917,23.01372407532576,0.0 120.26154041290283,23.005873268602866,0.0 120.26091814041138,23.004322803700987,0.0 120.25922298431396,23.00019472749805,0.0 120.2533757686615,22.999078742634595,0.0</coordinates>
				</LineString>
			</Placemark>
		</Folder>
		<Style id='icon-959-FFFFFF'>
			<IconStyle>
				<color>ffFFFFFF</color>
				<scale>1.1</scale>
				<Icon>
					<href>http://www.gstatic.com/mapspro/images/stock/959-wht-circle-blank.png</href>
				</Icon>
			</IconStyle>
		</Style>
		<Style id='line-7C3592-4'>
			<LineStyle>
				<color>ff92357C</color>
				<width>4</width>
			</LineStyle>
		</Style>
	</Document>
</kml>